City_ID,City,Lat,Lng,Max Temp,Humidity,Cloudiness,Wind Speed,Country,Date
0,hawaiian paradise park,19.5933,-154.9731,81.91,72.0,100.0,13.8,US,1717540758.0
1,ushuaia,-54.8,-68.3,33.46,93.0,75.0,3.44,AR,1717540561.0
2,bilibino,68.0546,166.4372,53.47,51.0,100.0,3.13,RU,1717540760.0
3,richards bay,-28.783,32.0377,62.31,42.0,0.0,5.35,ZA,1717540761.0
4,sucua,-2.4667,-78.1667,77.74,60.0,100.0,3.44,EC,1717540762.0
5,minas de barroteran,27.6333,-101.2833,104.58,24.0,0.0,12.1,MX,1717540763.0
6,tiksi,71.6872,128.8694,48.6,67.0,99.0,2.3,RU,1717540764.0
7,port mathurin,-19.6833,63.4167,73.56,67.0,95.0,21.3,MU,1717540765.0
8,nar'yan-mar,67.6713,53.087,38.1,99.0,97.0,10.0,RU,1717540767.0
9,manggar,-2.8833,108.2667,81.34,83.0,18.0,7.54,ID,1717540768.0
10,cabo san lucas,22.8909,-109.9124,90.61,45.0,0.0,8.05,MX,1717540294.0
11,angaur state,6.906,134.13,83.84,72.0,100.0,5.55,PW,1717540770.0
12,howard springs,-12.497,131.047,73.87,76.0,92.0,9.93,AU,1717540771.0
13,robertsport,6.7533,-11.3686,80.44,84.0,85.0,10.89,LR,1717540772.0
14,jamestown,42.097,-79.2353,81.99,50.0,40.0,6.91,US,1717540635.0
15,port-aux-francais,-49.35,70.2167,36.45,67.0,100.0,26.89,TF,1717540774.0
16,mabaruma,8.2,-59.7833,77.29,90.0,48.0,3.67,GY,1717540776.0
17,yellowknife,62.456,-114.3525,58.41,61.0,20.0,16.11,CA,1717540777.0
18,tumut,-35.3,148.2167,47.55,78.0,99.0,2.57,AU,1717540778.0
19,pinotepa nacional,16.3167,-98.0167,90.45,35.0,0.0,9.8,MX,1717540779.0
20,taiohae,,,,,,,,
21,puerto natales,-51.7236,-72.4875,29.59,89.0,99.0,1.99,CL,1717540781.0
22,dalandzadgad,43.5708,104.425,60.94,47.0,12.0,27.0,MN,1717540782.0
23,isafjordur,66.0755,-23.124,35.24,76.0,100.0,17.09,IS,1717540783.0
24,kodiak,57.79,-152.4072,49.51,76.0,100.0,5.75,US,1717540785.0
25,west island,-12.1568,96.8225,82.38,94.0,40.0,11.5,CC,1717540786.0
26,uturoa,-16.7333,-151.4333,81.45,81.0,50.0,13.0,PF,1717540787.0
27,mount pearl,47.5166,-52.7813,48.85,99.0,100.0,12.66,CA,1717540788.0
28,savino,56.5929,41.2181,61.48,96.0,98.0,6.11,RU,1717540789.0
29,dadonghai,,,,,,,,
30,crane,31.3974,-102.3501,101.03,5.0,84.0,18.25,US,1717540791.0
31,wailua homesteads,22.0669,-159.378,82.83,83.0,100.0,12.66,US,1717540793.0
32,waitangi,-43.9535,-176.5597,49.82,85.0,99.0,4.0,NZ,1717540794.0
33,ribeira grande,38.5167,-28.7,64.8,82.0,20.0,8.01,PT,1717540795.0
34,argo,37.6333,22.7333,79.03,37.0,4.0,4.03,GR,1717540796.0
35,sinabang,2.4803,96.3801,79.5,87.0,100.0,2.44,ID,1717540797.0
36,cochrane,51.1834,-114.4687,66.65,30.0,0.0,21.85,CA,1717540680.0
37,gamba,-2.65,10.0,73.06,87.0,18.0,5.19,GA,1717540799.0
38,utrik,11.2278,169.8474,82.53,81.0,96.0,19.48,MH,1717540800.0
39,aykhal,66.0,111.5,51.08,49.0,100.0,13.4,RU,1717540802.0
40,zlatna,46.1167,23.2167,57.81,95.0,93.0,4.56,RO,1717540803.0
41,buka,40.8108,69.1986,70.41,40.0,99.0,3.24,UZ,1717540804.0
42,mugia,43.1041,-9.2179,58.91,80.0,100.0,2.77,ES,1717540806.0
43,iskateley,67.6803,53.1512,38.01,99.0,95.0,10.0,RU,1717540807.0
44,bredasdorp,-34.5322,20.0403,61.09,88.0,100.0,21.03,ZA,1717540808.0
45,ahar,38.4774,47.0699,55.11,52.0,1.0,3.09,IR,1717540809.0
46,iqaluit,63.7506,-68.5145,33.53,93.0,100.0,6.91,CA,1717540748.0
47,raduzhny,62.0961,77.475,43.23,68.0,99.0,6.26,RU,1717540811.0
48,cholpon-ata,42.6494,77.0823,46.45,56.0,63.0,3.6,KG,1717540812.0
49,puerto ayora,-0.7393,-90.3518,78.76,96.0,83.0,1.99,EC,1717540813.0
50,uyskoye,54.3775,60.0047,59.58,88.0,100.0,3.87,RU,1717540814.0
51,sibiti,-3.6819,13.3499,67.59,93.0,13.0,2.33,CG,1717540816.0
52,allapalli,19.4167,80.0667,82.44,76.0,97.0,3.09,IN,1717540817.0
53,lebu,-37.6167,-73.65,55.47,86.0,94.0,19.93,CL,1717540818.0
54,blackmans bay,-43.0167,147.3167,48.52,96.0,58.0,1.01,AU,1717540819.0
55,horta,38.5333,-28.6333,64.04,86.0,20.0,8.01,PT,1717540820.0
56,grytviken,-54.2811,-36.5092,29.14,78.0,23.0,12.64,GS,1717540821.0
57,adamstown,-25.066,-130.1015,71.55,82.0,84.0,3.42,PN,1717540823.0
58,shiguai,40.7058,110.2856,54.9,94.0,100.0,6.55,CN,1717540824.0
59,roma,43.2128,-75.4557,84.34,37.0,0.0,3.44,US,1717540825.0
60,hami,42.8,93.45,63.88,26.0,62.0,13.02,CN,1717540748.0
61,edinburgh of the seven seas,-37.0676,-12.3116,58.89,73.0,93.0,16.67,SH,1717540827.0
62,bethel,41.3712,-73.414,79.36,64.0,20.0,9.22,US,1717540613.0
63,badger,64.8,-147.5333,71.98,40.0,75.0,6.91,US,1717540829.0
64,ilulissat,69.2167,-51.1,39.22,65.0,75.0,4.61,GL,1717540831.0
65,stanley,54.868,-1.6985,44.71,75.0,0.0,11.5,GB,1717540832.0
66,lihue,21.9789,-159.3672,83.44,79.0,100.0,12.66,US,1717540833.0
67,at taj,24.2049,23.2857,88.39,16.0,0.0,13.65,LY,1717540834.0
68,margaret river,-33.95,115.0667,62.6,79.0,62.0,12.01,AU,1717540835.0
69,st. john's,47.5649,-52.7093,49.68,99.0,100.0,12.66,CA,1717540709.0
70,tolanaro,-25.0319,46.9987,69.87,88.0,75.0,18.41,MG,1717540837.0
71,rabak,13.1809,32.74,93.09,34.0,13.0,14.29,SD,1717540838.0
72,san patricio,28.017,-97.5169,96.89,59.0,6.0,20.69,US,1717540840.0
73,avarua,-21.2078,-159.775,77.05,61.0,40.0,3.44,CK,1717540841.0
74,ouadda,8.0777,22.4007,68.22,94.0,100.0,6.4,CF,1717540842.0
75,nouadhibou,20.931,-17.0347,67.98,77.0,0.0,18.41,MR,1717540843.0
76,port lincoln,-34.7333,135.8667,53.22,85.0,8.0,3.74,AU,1717540569.0
77,mandalgovi,45.7625,106.2708,60.89,55.0,82.0,10.09,MN,1717540845.0
78,kingston,17.997,-76.7936,77.95,83.0,75.0,25.32,JM,1717540735.0
79,whitby,54.4877,-0.615,47.32,79.0,4.0,7.0,GB,1717540847.0
80,hermanus,-34.4187,19.2345,60.8,92.0,100.0,16.67,ZA,1717540680.0
81,hilo,19.7297,-155.09,82.13,78.0,100.0,13.8,US,1717540850.0
82,guadalupe y calvo,26.1,-106.9667,78.06,16.0,0.0,14.5,MX,1717540851.0
83,vorgashor,67.5833,63.95,24.8,94.0,9.0,6.08,RU,1717540852.0
84,prairie grove,35.9759,-94.3177,83.07,54.0,0.0,6.91,US,1717540853.0
85,mount gambier,-37.8333,140.7667,44.51,71.0,80.0,3.09,AU,1717540854.0
86,las khorey,11.1595,48.1967,89.64,63.0,4.0,4.18,SO,1717540855.0
87,georgetown,5.4112,100.3354,84.13,78.0,20.0,2.3,MY,1717540852.0
88,magadan,59.5667,150.8,38.53,81.0,99.0,5.73,RU,1717540857.0
89,okahandja,-21.9833,16.9167,44.38,16.0,0.0,2.13,NA,1717540859.0
90,bardai,11.65,7.2333,75.49,73.0,100.0,7.4,NG,1717540860.0
91,oumache,34.6929,5.6809,80.89,41.0,75.0,5.75,DZ,1717540861.0
92,anadyr,64.75,177.4833,39.7,69.0,20.0,11.01,RU,1717540862.0
93,belyy yar,53.6039,91.3903,44.49,70.0,0.0,11.18,RU,1717540863.0
94,miri,4.4148,114.0089,77.14,100.0,40.0,0.0,MY,1717540864.0
95,fuvahmulah,,,,,,,,
96,harstad,68.799,16.5293,55.24,66.0,45.0,15.01,NO,1717540866.0
97,thompson,55.7435,-97.8558,53.76,76.0,100.0,13.8,CA,1717540677.0
98,petropavlovsk-kamchatsky,53.0452,158.6483,48.79,67.0,0.0,4.47,RU,1717540869.0
99,anaconda,46.1285,-112.9423,61.79,65.0,62.0,15.52,US,1717540796.0
100,menongue,-14.6585,17.691,55.15,27.0,0.0,3.27,AO,1717540871.0
101,colonia,50.9333,6.95,65.05,73.0,0.0,10.36,DE,1717540751.0
102,remire-montjoly,4.9167,-52.2667,82.44,83.0,0.0,3.44,GF,1717540873.0
103,punta arenas,-53.15,-70.9167,35.71,87.0,75.0,3.44,CL,1717540874.0
104,juegang,32.3174,121.1855,69.87,74.0,100.0,15.08,CN,1717540875.0
105,golhisar,37.1459,29.5088,64.58,65.0,23.0,0.54,TR,1717540876.0
106,bolgar,54.95,49.0667,58.66,95.0,14.0,9.35,RU,1717540878.0
107,port antonio,18.18,-76.4612,78.71,84.0,100.0,8.28,JM,1717540879.0
108,la ronge,55.1001,-105.2842,50.25,87.0,100.0,18.41,CA,1717540880.0
109,dudinka,69.4058,86.1778,28.67,92.0,100.0,5.01,RU,1717540881.0
110,al qadarif,14.0349,35.3834,90.57,35.0,100.0,8.61,SD,1717540882.0
111,falmouth,50.1544,-5.0711,54.5,94.0,40.0,9.22,GB,1717540883.0
112,nyurba,63.2842,118.3319,58.12,89.0,100.0,4.34,RU,1717540885.0
113,la piedad,20.35,-102.0,95.76,11.0,30.0,10.29,MX,1717540886.0
114,camargo,27.6667,-105.1667,98.87,4.0,1.0,10.22,MX,1717540887.0
115,lawas,13.764,121.0566,82.0,84.0,98.0,3.24,PH,1717540888.0
116,bonthe,7.5264,-12.505,79.9,86.0,97.0,6.91,SL,1717540889.0
117,praia da vitoria,38.7333,-27.0667,66.45,88.0,20.0,6.42,PT,1717540890.0
118,katsuura,35.1333,140.3,66.22,73.0,1.0,13.53,JP,1717540891.0
119,tromso,69.6496,18.957,50.02,66.0,2.0,18.41,NO,1717540892.0
120,general jose de san martin,-26.5374,-59.3416,62.42,88.0,77.0,5.03,AR,1717540894.0
121,rio grande,-32.035,-52.0986,55.51,79.0,100.0,9.1,BR,1717540895.0
122,weno,7.4515,151.8468,84.15,84.0,100.0,8.05,FM,1717540896.0
123,shimoda,34.6667,138.95,66.11,77.0,10.0,5.75,JP,1717540897.0
124,albany,42.6001,-73.9662,81.01,60.0,96.0,3.31,US,1717540855.0
125,longyearbyen,78.2186,15.6401,37.24,70.0,75.0,26.46,SJ,1717540899.0
126,bundaberg,-24.85,152.35,59.22,84.0,2.0,3.0,AU,1717540900.0
127,fairmont,39.4851,-80.1426,86.92,68.0,99.0,4.88,US,1717540683.0
128,port elizabeth,-33.918,25.5701,58.32,99.0,20.0,12.66,ZA,1717540902.0
129,vingt cinq,,,,,,,,
130,lata,40.1629,-8.3327,56.95,87.0,58.0,1.66,PT,1717540905.0
131,vila franca do campo,37.7167,-25.4333,64.89,99.0,64.0,2.84,PT,1717540906.0
132,benoy,8.9833,16.3199,89.2,34.0,29.0,6.17,TD,1717540907.0
133,khandyga,62.6667,135.6,46.09,74.0,100.0,6.38,RU,1717540908.0
134,berezovyy,51.6667,135.7,52.18,63.0,95.0,3.2,RU,1717540909.0
135,coronel suarez,-37.4547,-61.9334,43.65,78.0,100.0,7.02,AR,1717540765.0
136,aasiaat,68.7098,-52.8699,33.93,69.0,100.0,3.4,GL,1717540911.0
137,constantia,44.1833,28.65,63.7,84.0,29.0,7.18,RO,1717540777.0
138,saint-jean-de-monts,46.7833,-2.0667,59.68,89.0,68.0,11.72,FR,1717540914.0
139,klyuchi,52.2667,79.1667,47.41,79.0,82.0,5.26,RU,1717540915.0
140,grand falls-windsor,48.9332,-55.6649,49.93,98.0,100.0,10.63,CA,1717540916.0
141,prieska,-29.6641,22.7474,47.95,77.0,56.0,8.01,ZA,1717540917.0
142,vilyuchinsk,52.9306,158.4028,50.27,71.0,96.0,3.58,RU,1717540889.0
143,ghadamis,30.1337,9.5007,84.99,30.0,11.0,8.34,LY,1717540919.0
144,ungsang-nodongjagu,42.3578,130.4622,54.95,85.0,27.0,2.48,KP,1717540920.0
145,sitka,57.0531,-135.33,58.89,51.0,75.0,13.8,US,1717540921.0
146,keflavik,64.0049,-22.5624,42.71,65.0,75.0,32.21,IS,1717540922.0
147,sao jose da coroa grande,-8.8978,-35.1478,76.87,88.0,14.0,8.57,BR,1717540924.0
148,saint-philippe,-21.3585,55.7679,71.19,80.0,76.0,12.5,RE,1717540925.0
149,clifton,40.8584,-74.1638,82.45,57.0,0.0,11.5,US,1717540709.0
150,invercargill,-46.4,168.35,43.02,94.0,100.0,1.99,NZ,1717540927.0
151,taltal,-25.4,-70.4833,59.32,87.0,69.0,2.84,CL,1717540928.0
152,la'ie,21.6477,-157.9253,84.16,78.0,8.0,8.99,US,1717540929.0
153,kirsanov,52.6549,42.7224,61.5,92.0,1.0,6.11,RU,1717540799.0
154,geraldton,-28.7667,114.6,54.01,82.0,0.0,11.5,AU,1717540931.0
155,dryden,49.7833,-92.7503,75.49,64.0,75.0,10.36,CA,1717540933.0
156,pyapon,16.2833,95.6833,78.08,93.0,52.0,5.08,MM,1717540934.0
157,zaigrayevo,51.8336,108.2703,56.1,77.0,84.0,5.61,RU,1717540935.0
158,baidoa,3.1138,43.6498,71.6,85.0,54.0,11.12,SO,1717540936.0
159,nogliki,51.8333,143.1667,46.99,76.0,100.0,10.83,RU,1717540937.0
160,sao gabriel da cachoeira,-0.1303,-67.0892,82.2,78.0,20.0,3.44,BR,1717540938.0
161,howrah,22.5892,88.3103,80.6,89.0,40.0,0.0,IN,1717540939.0
162,kudahuvadhoo,2.6708,72.8944,82.65,72.0,22.0,8.52,MV,1717540940.0
163,udachny,66.4167,112.4,54.45,49.0,100.0,13.73,RU,1717540941.0
164,oltinko'l,40.8011,72.1634,74.8,37.0,100.0,2.71,UZ,1717540943.0
165,tazovsky,67.4667,78.7,30.33,96.0,100.0,10.8,RU,1717540944.0
166,mount pleasant,32.7941,-79.8626,82.18,68.0,0.0,10.36,US,1717540920.0
167,misratah,32.3754,15.0925,77.7,61.0,70.0,6.55,LY,1717540946.0
168,nerchinsk,51.9833,116.5833,67.42,52.0,0.0,4.94,RU,1717540947.0
169,corinto,37.9407,22.9573,78.22,41.0,7.0,2.68,GR,1717540948.0
170,tura,25.5198,90.2201,72.68,96.0,18.0,3.6,IN,1717540949.0
171,huambo,-12.7761,15.7392,58.8,47.0,0.0,5.75,AO,1717540950.0
172,hammerfest,70.6634,23.6821,43.25,81.0,33.0,2.3,NO,1717540952.0
173,isangel,-19.55,169.2667,78.91,78.0,20.0,2.3,VU,1717540667.0
174,dunedin,-45.8742,170.5036,51.8,65.0,100.0,1.45,NZ,1717540954.0
175,ridder,50.355,83.5133,50.65,95.0,85.0,3.49,KZ,1717540955.0
176,adra,36.7496,-3.0206,67.08,67.0,3.0,0.76,ES,1717540956.0
177,puerto san carlos,,,,,,,,
178,olonkinbyen,70.9221,-8.7187,31.33,98.0,92.0,18.81,SJ,1717540958.0
179,bodo,67.28,14.405,61.77,48.0,40.0,24.16,NO,1717540959.0
180,gorontalo,0.5412,123.0595,76.23,90.0,78.0,1.81,ID,1717540961.0
181,hadibu,12.65,54.0333,82.96,78.0,31.0,12.93,YE,1717540962.0
182,hithadhoo,-0.6,73.0833,82.96,73.0,22.0,6.11,MV,1717540963.0
183,dazhong,33.1997,120.4578,69.03,75.0,100.0,10.27,CN,1717540964.0
184,mont-laurier,46.5501,-75.4993,80.22,69.0,92.0,3.65,CA,1717540965.0
185,college,64.8569,-147.8028,72.07,39.0,75.0,6.91,US,1717540966.0
186,praia,14.9215,-23.5087,73.94,78.0,20.0,17.27,CV,1717540967.0
187,bathurst,-33.4166,149.5806,43.83,71.0,87.0,2.13,AU,1717540968.0
188,freetown,8.484,-13.2299,79.66,88.0,100.0,4.59,SL,1717540549.0
189,devinuwara,,,,,,,,
190,papatowai,-46.5619,169.4708,50.5,63.0,100.0,1.25,NZ,1717540972.0
191,caleta de carquin,-11.0925,-77.6267,65.35,80.0,7.0,9.71,PE,1717540973.0
192,aripuana,-9.1667,-60.6333,77.65,58.0,78.0,2.71,BR,1717540974.0
193,elva,58.2225,26.4211,55.54,76.0,0.0,6.91,EE,1717540975.0
194,kuqa,41.7278,82.9364,65.98,29.0,86.0,3.22,CN,1717540684.0
195,broken hill,-31.95,141.4333,47.46,63.0,70.0,8.52,AU,1717540977.0
196,kogalym,62.2654,74.4791,47.98,60.0,45.0,11.99,RU,1717540683.0
197,luganville,-15.5333,167.1667,80.58,72.0,24.0,8.63,VU,1717540980.0
198,brookings,44.3114,-96.7984,63.05,66.0,100.0,14.97,US,1717540856.0
199,kulhudhuffushi,6.6221,73.07,83.39,80.0,70.0,12.88,MV,1717540982.0
200,singaraja,-8.112,115.0882,78.82,80.0,58.0,3.8,ID,1717540983.0
201,stephenville,32.2207,-98.2023,96.24,54.0,0.0,10.36,US,1717540984.0
202,yreka,41.7354,-122.6345,88.36,34.0,0.0,5.75,US,1717540985.0
203,kasongo-lunda,-6.4667,16.8167,74.41,71.0,70.0,2.64,CD,1717540986.0
204,suntar,62.1444,117.6319,60.82,80.0,96.0,4.61,RU,1717540987.0
205,enewetak,11.3474,162.3373,81.55,84.0,100.0,21.36,MH,1717540988.0
206,sorong,-0.8833,131.25,78.82,86.0,94.0,5.57,ID,1717540990.0
207,veinticinco de mayo,-35.4323,-60.1727,48.97,78.0,100.0,1.99,AR,1717540991.0
208,polyarnyy,69.1989,33.4478,46.78,96.0,100.0,18.77,RU,1717540992.0
209,berdigestyakh,62.0989,126.6992,54.7,40.0,0.0,9.33,RU,1717540993.0
210,porto novo,6.4965,2.6036,82.22,84.0,71.0,8.16,BJ,1717540994.0
211,hihifo,,,,,,,,
212,ahau,,,,,,,,
213,redencao,-4.2258,-38.7306,73.47,96.0,8.0,2.46,BR,1717540998.0
214,namibe,-15.1961,12.1522,63.48,81.0,39.0,4.56,AO,1717540999.0
215,bikenibeu village,1.3673,173.1241,85.96,79.0,40.0,6.91,KI,1717541000.0
216,chonchi,-42.6128,-73.8092,52.12,90.0,100.0,8.41,CL,1717541001.0
217,samamea,,,,,,,,
218,jining,35.405,116.5814,72.3,48.0,100.0,13.22,CN,1717541003.0
219,sydney,-33.8679,151.2073,54.72,75.0,75.0,9.22,AU,1717540769.0
220,yarmouth,41.7057,-70.2286,69.8,72.0,0.0,6.91,US,1717541005.0
221,vila velha,-20.3297,-40.2925,73.35,88.0,20.0,9.22,BR,1717541007.0
222,sittwe,20.15,92.9,82.02,83.0,7.0,7.02,MM,1717541008.0
223,merizo village,13.2658,144.6691,80.33,78.0,93.0,11.83,GU,1717541009.0
224,brigantine,39.4101,-74.3646,75.4,84.0,0.0,8.05,US,1717541010.0
225,tual,-5.6667,132.75,81.01,83.0,75.0,18.86,ID,1717541011.0
226,nova sintra,14.8667,-24.7167,76.19,77.0,43.0,17.4,CV,1717541012.0
227,guasave,25.5667,-108.45,94.6,22.0,0.0,11.14,MX,1717541013.0
228,zhezqazghan,47.7833,67.7667,66.27,34.0,12.0,4.54,KZ,1717540869.0
229,kampong thom,12.7111,104.8887,79.86,80.0,100.0,0.83,KH,1717541016.0
230,borzya,50.3833,116.5167,69.53,38.0,1.0,6.17,RU,1717540879.0
231,cedeira,43.6797,-8.0209,64.04,80.0,33.0,12.28,ES,1717541018.0
232,nuuk,64.1835,-51.7216,39.81,100.0,100.0,6.91,GL,1717540860.0
233,saipan,15.1355,145.701,83.1,89.0,75.0,6.91,MP,1717541020.0
234,kirakira,-10.4544,161.9205,83.86,78.0,85.0,4.23,SB,1717541021.0
235,ust-nera,64.5667,143.2,60.96,35.0,8.0,4.21,RU,1717541022.0
236,newark,40.7357,-74.1724,83.19,64.0,75.0,11.5,US,1717540656.0
237,cockburn town,21.4612,-71.1419,84.7,74.0,59.0,3.04,TC,1717541024.0
238,waddan,29.1614,16.139,96.42,13.0,92.0,15.61,LY,1717541025.0
239,whitehorse,60.7161,-135.0538,54.37,82.0,100.0,3.44,CA,1717540813.0
240,fallon,39.4735,-118.7774,88.92,26.0,20.0,0.0,US,1717541028.0
241,hasaki,35.7333,140.8333,68.29,74.0,10.0,18.59,JP,1717541029.0
242,paracuru,-3.41,-39.0306,83.1,92.0,10.0,8.34,BR,1717541030.0
243,sosnogorsk,63.6023,53.8817,55.54,99.0,96.0,5.01,RU,1717541031.0
244,oranjemund,-28.55,16.4333,55.04,86.0,0.0,2.55,NA,1717541032.0
245,port sudan,19.6175,37.2164,84.69,60.0,0.0,5.75,SD,1717541033.0
246,pimentel,-6.8367,-79.9342,70.09,68.0,0.0,19.57,PE,1717541034.0
247,goroka,-6.0834,145.3873,70.27,70.0,30.0,1.52,PG,1717541036.0
248,onguday,50.75,86.15,46.65,93.0,75.0,1.43,RU,1717541037.0
249,edson,53.5835,-116.4356,66.31,20.0,0.0,16.11,CA,1717541038.0
250,ocean shores,46.9737,-124.1563,60.03,91.0,100.0,16.11,US,1717541039.0
251,ta`u,-14.2336,-169.5144,80.4,81.0,96.0,13.51,AS,1717541040.0
252,lesogorsk,56.0458,99.5136,51.93,70.0,100.0,3.0,RU,1717541041.0
253,fortuna,40.5982,-124.1573,71.92,63.0,0.0,14.97,US,1717541042.0
254,samarinda,-0.5,117.15,74.77,94.0,100.0,1.77,ID,1717541043.0
255,mejit,10.2753,170.8646,82.74,81.0,100.0,17.98,MH,1717541045.0
256,hemsby,52.6971,1.6918,51.42,89.0,100.0,16.55,GB,1717541046.0
257,hobyo,5.3505,48.5268,79.97,83.0,100.0,24.63,SO,1717541047.0
258,zheleznodorozhnyy,55.7503,38.0042,64.0,96.0,5.0,7.0,RU,1717541048.0
259,pisco,-13.7,-76.2167,62.65,82.0,75.0,4.61,PE,1717541049.0
260,morococha,-11.5997,-76.1411,39.25,44.0,0.0,5.14,PE,1717541050.0
261,varash,,,,,,,,
262,anloga,5.7947,0.8973,81.3,81.0,47.0,14.09,GH,1717541052.0
263,eyl,7.9803,49.8164,81.19,75.0,27.0,20.49,SO,1717540649.0
264,tadine,-21.55,167.8833,78.73,68.0,5.0,4.34,NC,1717541054.0
265,lingyuan,41.24,119.4011,68.58,40.0,100.0,4.72,CN,1717541056.0
266,trairi,-3.2778,-39.2689,75.88,93.0,11.0,7.23,BR,1717541057.0
267,khabary,53.6259,79.5345,44.56,79.0,99.0,4.5,RU,1717541058.0
268,mount darwin,-16.7725,31.5838,61.29,56.0,0.0,3.78,ZW,1717541059.0
269,carnarvon,-24.8667,113.6333,64.99,49.0,0.0,11.07,AU,1717541060.0
270,timbuktu,16.7735,-3.0074,95.92,25.0,2.0,3.89,ML,1717541061.0
271,emerald,-23.5333,148.1667,61.34,71.0,0.0,8.61,AU,1717541062.0
272,fale old settlement,-9.3852,-171.2468,83.75,72.0,100.0,9.13,TK,1717541063.0
273,lewiston orchards,46.3804,-116.9754,64.31,66.0,100.0,10.36,US,1717541065.0
274,adh dhibiyah,,,,,,,,
275,pandan,14.0453,124.1694,83.28,79.0,100.0,2.66,PH,1717541067.0
276,luis moya,22.4324,-102.2486,93.27,9.0,61.0,9.01,MX,1717541068.0
277,egilsstadir,65.2653,-14.3948,37.31,81.0,75.0,11.5,IS,1717541069.0
278,bage,-31.3314,-54.1069,50.95,95.0,100.0,9.17,BR,1717541070.0
279,alice springs,-23.7,133.8833,47.75,93.0,100.0,9.22,AU,1717541071.0
280,north bend,43.4065,-124.2243,73.98,68.0,100.0,16.11,US,1717540958.0
281,east london,-33.0153,27.9116,62.49,82.0,100.0,23.71,ZA,1717541073.0
282,mirny,62.5353,113.9611,58.98,69.0,74.0,6.04,RU,1717541075.0
283,lynden,48.9465,-122.4521,64.69,71.0,75.0,16.11,US,1717541076.0
284,ballina,-28.8667,153.5667,52.79,73.0,83.0,5.91,AU,1717541077.0
285,morondava,-20.2833,44.2833,72.32,86.0,0.0,5.91,MG,1717541078.0
286,homer,59.6425,-151.5483,57.09,60.0,75.0,9.22,US,1717541079.0
287,sambava,-14.2667,50.1667,71.06,83.0,33.0,11.68,MG,1717541080.0
288,kidal,18.4411,1.4078,97.68,14.0,61.0,4.61,ML,1717541081.0
289,springbok,-29.6643,17.8865,42.35,87.0,0.0,0.98,ZA,1717540977.0
290,myitkyina,25.3833,97.4,73.83,100.0,57.0,0.92,MM,1717541083.0
291,kerikeri,-35.2268,173.9474,61.92,80.0,100.0,11.99,NZ,1717541085.0
292,fort-shevchenko,44.5086,50.263,77.27,44.0,60.0,5.44,KZ,1717541086.0
293,pursat,12.3333,103.6667,73.87,87.0,49.0,2.71,KH,1717541087.0
294,sao vicente,-23.9631,-46.3919,69.28,59.0,100.0,5.99,BR,1717541066.0
295,ancud,-41.8697,-73.8203,54.57,81.0,100.0,16.37,CL,1717541089.0
296,cooma,-36.2333,149.1333,41.83,86.0,100.0,1.86,AU,1717541090.0
297,atafu village,-8.5421,-172.5159,83.14,77.0,100.0,10.74,TK,1717541091.0
298,queenstown,-31.8976,26.8753,51.35,79.0,100.0,35.37,ZA,1717541092.0
299,catriel,-37.8791,-67.7956,52.5,44.0,100.0,11.99,AR,1717541094.0
300,new norfolk,-42.7826,147.0587,51.3,89.0,86.0,1.86,AU,1717541095.0
301,kununurra,-15.7667,128.7333,66.18,55.0,0.0,11.5,AU,1717541096.0
302,axim,4.8699,-2.2405,78.71,86.0,89.0,6.67,GH,1717541097.0
303,puerto deseado,-47.7503,-65.8938,39.25,66.0,59.0,2.51,AR,1717540880.0
304,nili,33.7218,66.1302,58.59,41.0,0.0,7.43,AF,1717541099.0
305,mhamid,29.82,-5.72,86.36,15.0,1.0,5.64,MA,1717541100.0
306,hit,33.6416,42.8251,90.09,17.0,0.0,5.7,IQ,1717541101.0
307,kochkor-ata,41.0389,72.4833,66.9,44.0,100.0,5.17,UZ,1717541103.0
308,puerto baquerizo moreno,-0.9,-89.6,76.19,78.0,100.0,13.8,EC,1717540932.0
309,nadym,65.5333,72.5167,30.96,91.0,22.0,6.85,RU,1717541105.0
310,zaozersk,69.4005,32.4476,47.08,89.0,95.0,8.66,RU,1717541106.0
311,viedma,-40.8135,-62.9967,52.97,46.0,100.0,13.15,AR,1717540823.0
312,luorong,24.4058,109.6086,70.39,94.0,100.0,6.31,CN,1717541109.0
313,malmyzh,56.5205,50.6818,64.0,94.0,9.0,7.11,RU,1717541110.0
314,stara zagora,42.4328,25.6419,66.92,84.0,5.0,5.64,BG,1717541111.0
315,hayma',,,,,,,,
316,yinchuan,38.4681,106.2731,64.4,68.0,0.0,2.28,CN,1717541113.0
317,xinyuan,37.3,99.0,42.06,43.0,0.0,0.38,CN,1717541114.0
318,qamdo,31.1667,97.2333,45.09,67.0,100.0,7.94,CN,1717541115.0
319,tanki leendert,,,,,,,,
320,vadso,70.0744,29.7487,47.28,87.0,75.0,9.22,NO,1717541118.0
321,codrington,-38.2667,141.9667,45.95,71.0,83.0,4.41,AU,1717541119.0
322,gulf shores,30.246,-87.7008,85.37,71.0,40.0,12.66,US,1717540953.0
323,tucurui,-3.7661,-49.6725,82.04,70.0,96.0,0.49,BR,1717541121.0
324,tubarjal,30.4999,38.216,85.35,24.0,0.0,12.39,SA,1717541122.0
325,mar del plata,-38.0023,-57.5575,49.87,75.0,0.0,8.01,AR,1717541105.0
326,prince rupert,54.3161,-130.3201,49.69,87.0,100.0,35.68,CA,1717541124.0
327,dubbo,-32.25,148.6167,41.13,93.0,54.0,4.61,AU,1717541125.0
328,marsh harbour,26.5412,-77.0636,79.81,78.0,8.0,12.06,BS,1717541127.0
329,'ohonua,,,,,,,,
330,swakopmund,-22.6833,14.5333,51.98,83.0,0.0,1.77,NA,1717541129.0
331,tommot,58.9564,126.2925,52.45,47.0,0.0,9.24,RU,1717541130.0
332,riohacha,11.5444,-72.9072,86.11,89.0,20.0,10.36,CO,1717541131.0
333,rusape,-18.5278,32.1284,56.57,51.0,1.0,4.05,ZW,1717541132.0
334,ar raqqah,35.95,39.0167,88.27,16.0,0.0,6.31,SY,1717541133.0
335,happy valley-goose bay,53.3168,-60.3315,77.31,41.0,20.0,8.05,CA,1717541110.0
336,antsiranana,-12.2787,49.2917,74.68,69.0,4.0,15.79,MG,1717541136.0
337,kolonia,50.9333,6.95,65.05,73.0,0.0,10.36,DE,1717541006.0
338,sao paulo de olivenca,-3.3783,-68.8725,75.0,97.0,68.0,2.39,BR,1717541138.0
339,sabang,5.8933,95.3214,84.6,72.0,86.0,12.5,ID,1717541139.0
340,bull savanna,17.8868,-77.5902,81.55,77.0,87.0,10.71,JM,1717541140.0
341,batouri,4.4333,14.3667,70.02,95.0,5.0,3.24,CM,1717541141.0
342,port alfred,-33.5906,26.891,58.17,93.0,100.0,7.0,ZA,1717541142.0
343,zambezi,-13.5432,23.1047,58.82,32.0,0.0,4.81,ZM,1717541143.0
344,ebon,4.582,168.6964,84.27,77.0,25.0,13.44,MH,1717541144.0
345,peniche,39.3558,-9.3811,65.28,89.0,10.0,8.05,PT,1717541146.0
346,santa luzia,-19.7697,-43.8514,74.3,54.0,40.0,9.22,BR,1717540890.0
347,korla,41.7597,86.1469,63.01,47.0,62.0,10.65,CN,1717541148.0
348,quepos,9.4236,-84.1652,81.88,82.0,97.0,5.01,CR,1717540898.0
349,ibra',,,,,,,,
350,carutapera,-1.195,-46.02,77.58,88.0,7.0,6.2,BR,1717541151.0
351,nemuro,43.3236,145.575,44.33,91.0,47.0,4.72,JP,1717541152.0
352,mil'kovo,55.6078,37.7956,64.35,90.0,3.0,7.25,RU,1717541153.0
353,kailua-kona,19.6406,-155.9956,84.16,80.0,40.0,16.11,US,1717541154.0
354,zvishavane,-20.3267,30.0665,53.56,22.0,0.0,3.62,ZW,1717541156.0
355,wawa,9.9022,4.4192,78.24,86.0,74.0,6.06,NG,1717541002.0
356,gadzhiyevo,69.2551,33.3362,47.05,94.0,100.0,19.13,RU,1717541158.0
357,iwon-up,40.3231,128.6553,63.66,77.0,7.0,2.53,KP,1717541159.0
358,lompoc,34.6391,-120.4579,84.69,66.0,20.0,11.5,US,1717541160.0
359,lexington,37.9887,-84.4777,70.92,94.0,100.0,5.75,US,1717540857.0
360,ankazobe,-18.3167,47.1167,55.33,94.0,24.0,4.99,MG,1717541162.0
361,kedougou,12.5579,-12.1743,97.38,36.0,0.0,9.22,SN,1717541163.0
362,dalnegorsk,44.5604,135.5701,55.6,97.0,63.0,1.99,RU,1717540887.0
363,yantzaza,-3.8278,-78.7594,67.51,93.0,100.0,0.74,EC,1717541166.0
364,alofi,-19.0595,-169.9187,78.69,65.0,40.0,13.8,NU,1717541167.0
365,minab,27.1467,57.0801,84.52,58.0,0.0,0.0,IR,1717541168.0
366,beroroha,-21.6667,45.1667,66.51,74.0,25.0,3.06,MG,1717541169.0
367,floro,61.5996,5.0328,48.16,76.0,100.0,11.5,NO,1717541170.0
368,boundiali,9.5217,-6.4869,80.49,61.0,22.0,4.68,CI,1717541171.0
369,kolda,12.8833,-14.95,91.71,52.0,0.0,9.22,SN,1717541172.0
370,champerico,14.3,-91.9167,82.94,69.0,56.0,9.46,GT,1717541173.0
371,valparaiso,-33.0393,-71.6273,59.23,78.0,75.0,3.44,CL,1717541103.0
372,garden city,42.3256,-83.331,84.45,60.0,75.0,10.36,US,1717540957.0
373,rongelap,11.1635,166.8941,82.38,83.0,100.0,19.3,MH,1717541177.0
374,tataouine,32.9297,10.4518,67.15,86.0,2.0,7.23,TN,1717541178.0
375,hungnam,39.8317,127.6186,62.85,77.0,0.0,4.54,KP,1717541179.0
376,tuy hoa,13.0833,109.3,82.85,70.0,100.0,4.07,VN,1717541180.0
377,rudsar,37.1376,50.288,68.4,64.0,0.0,4.9,IR,1717541181.0
378,yashkul',46.1711,45.3435,77.58,34.0,74.0,8.95,RU,1717541182.0
379,olgii,,,,,,,,
380,hamilton,39.1834,-84.5333,81.93,76.0,0.0,8.05,US,1717540793.0
381,kataragama,,,,,,,,
382,taulaga,-11.0553,-171.0883,82.76,72.0,100.0,2.98,AS,1717541187.0
383,peace river,56.2501,-117.286,57.51,76.0,75.0,8.05,CA,1717541185.0
384,konarka,19.9,86.1167,81.0,91.0,58.0,9.04,IN,1717541189.0
385,bel ombre,-4.6167,55.4167,82.24,83.0,40.0,6.91,SC,1717541190.0
386,cacoal,-11.4386,-61.4472,75.79,63.0,78.0,1.7,BR,1717541041.0
387,holualoa,19.6228,-155.9522,80.44,81.0,40.0,16.11,US,1717541192.0
388,bengkulu,-3.8004,102.2655,76.57,93.0,100.0,5.99,ID,1717541193.0
389,kruisfontein,-34.0033,24.7314,57.83,95.0,99.0,15.97,ZA,1717541195.0
390,igarka,67.4667,86.5833,33.03,82.0,100.0,4.0,RU,1717541196.0
391,portland,45.5234,-122.6762,63.05,90.0,100.0,10.36,US,1717540943.0
392,kuna,43.4918,-116.4201,81.07,37.0,75.0,6.91,US,1717541121.0
393,matoury,4.8483,-52.3317,82.36,83.0,0.0,3.44,GF,1717541199.0
394,palikir - national government center,6.9248,158.1611,81.45,89.0,100.0,3.44,FM,1717541200.0
395,crucecita,-28.95,-58.9833,58.08,72.0,87.0,6.87,AR,1717541201.0
396,revda,56.801,59.9303,58.03,96.0,51.0,3.44,RU,1717541202.0
397,coquimbo,-29.9533,-71.3436,55.13,94.0,0.0,10.36,CL,1717540988.0
398,zapala,-38.8992,-70.0544,44.78,67.0,100.0,2.75,AR,1717541205.0
399,dolbeau-mistassini,48.8763,-72.212,81.25,77.0,100.0,5.5,CA,1717541206.0
400,gagarin,55.5529,34.9954,57.88,93.0,2.0,5.95,RU,1717541207.0
401,yylanly,,,,,,,,
402,naze,28.3667,129.4833,74.32,66.0,23.0,10.04,JP,1717541209.0
403,okhotsk,59.3833,143.3,38.05,97.0,100.0,17.16,RU,1717541210.0
404,arish,31.1316,33.7984,75.11,83.0,0.0,4.32,EG,1717541211.0
405,saint-pierre,-21.3393,55.4781,71.28,68.0,0.0,17.27,RE,1717541212.0
406,road town,18.4167,-64.6167,86.04,79.0,40.0,6.91,VG,1717541214.0
407,marvdasht,,,,,,,,
408,nobres,-14.7203,-56.3275,74.79,44.0,89.0,3.2,BR,1717541216.0
409,santana do acarau,-3.4606,-40.2122,74.48,96.0,3.0,2.19,BR,1717541217.0
410,al matariyah,31.1829,32.0311,78.75,80.0,0.0,6.13,EG,1717541218.0
411,moissala,8.3404,17.7663,81.82,46.0,67.0,5.75,TD,1717541219.0
412,wasilla,61.5814,-149.4394,66.65,56.0,0.0,6.91,US,1717541220.0
413,colonia menno,-22.3667,-59.8167,74.73,53.0,11.0,4.88,PY,1717541221.0
414,panacan,9.2463,118.4082,82.83,80.0,100.0,2.93,PH,1717541223.0
415,jurm,36.8648,70.8342,57.92,56.0,77.0,1.63,AF,1717541224.0
416,al hamul,31.3115,31.1477,72.75,83.0,0.0,6.31,EG,1717541225.0
417,labytnangi,66.6572,66.4183,32.38,93.0,9.0,7.09,RU,1717541226.0
418,ulaangom,49.9811,92.0667,55.17,51.0,87.0,3.31,MN,1717541227.0
419,liepaja,56.5419,21.0367,48.18,93.0,9.0,2.3,LV,1717541228.0
420,kapoeta,4.7717,33.5903,78.15,66.0,93.0,4.12,SS,1717541229.0
421,cargados carajos,,,,,,,,
422,kashgar,39.4547,75.9797,67.21,34.0,20.0,8.95,CN,1717541232.0
423,puerto lempira,15.2667,-83.7667,87.94,66.0,20.0,9.22,HN,1717541233.0
424,qa'en,33.7265,59.1844,65.16,41.0,0.0,9.1,IR,1717541234.0
425,zouerate,22.7187,-12.4521,80.08,24.0,1.0,12.33,MR,1717541235.0
426,hassi messaoud,31.6804,6.0729,85.86,30.0,100.0,26.46,DZ,1717541236.0
427,kingscliff,-28.2667,153.5667,60.76,88.0,86.0,3.44,AU,1717541237.0
428,villa rica,33.7321,-84.9191,83.89,89.0,88.0,5.84,US,1717541238.0
429,loa janan,-0.583,117.095,74.62,95.0,98.0,1.74,ID,1717541240.0
430,charikar,35.0136,69.1714,62.24,39.0,0.0,6.98,AF,1717541241.0
431,itoman,26.1247,127.6694,76.08,78.0,75.0,9.22,JP,1717541069.0
432,maloye ganyushkino,46.6,49.2667,79.79,36.0,100.0,9.78,KZ,1717541243.0
433,susuman,62.7833,148.1667,47.98,44.0,41.0,8.01,RU,1717541244.0
434,gori,41.9842,44.1158,62.64,70.0,0.0,5.79,GE,1717541245.0
435,kupang,-10.1667,123.5833,81.18,94.0,75.0,11.5,ID,1717541246.0
436,camara de lobos,32.6333,-16.9667,72.01,91.0,40.0,4.0,PT,1717541247.0
437,santa rosa del sara,,,,,,,,
438,nadi,-17.8,177.4167,80.6,57.0,20.0,4.61,FJ,1717541250.0
439,mount isa,-20.7333,139.5,53.37,82.0,0.0,1.14,AU,1717541251.0
440,plainview,40.7765,-73.4673,76.6,66.0,0.0,10.36,US,1717541028.0
441,saudarkrokur,65.7461,-19.6394,35.2,100.0,100.0,24.49,IS,1717541253.0
442,rio turbio,,,,,,,,
443,sault ste. marie,46.5168,-84.3333,75.76,70.0,75.0,8.05,CA,1717540932.0
444,qaqortoq,60.7167,-46.0333,40.12,95.0,100.0,1.01,GL,1717541256.0
445,tobruk,32.0836,23.9764,78.94,39.0,0.0,7.11,LY,1717541258.0
446,kalianget,-7.05,113.9333,80.1,79.0,63.0,7.07,ID,1717541259.0
447,quatre cocos,-20.2078,57.7625,71.71,72.0,70.0,16.78,MU,1717541260.0
448,bayanhongor,46.7167,100.1167,39.69,67.0,6.0,3.67,MN,1717541261.0
449,yagry,,,,,,,,
450,wynyard,-41.0,145.7167,50.18,80.0,93.0,1.99,AU,1717541263.0
451,afaahiti,-17.75,-149.2833,84.07,80.0,14.0,13.18,PF,1717541264.0
452,neryungri,56.6709,124.6491,53.19,51.0,8.0,1.88,RU,1717541265.0
453,taxco de alarcon,18.55,-99.6,92.82,17.0,68.0,5.37,MX,1717541267.0
454,hopelchen,19.7667,-89.85,106.16,18.0,1.0,6.71,MX,1717541268.0
455,villamontes,-21.25,-63.5,61.9,67.0,68.0,2.64,BO,1717541269.0
456,kayes,14.0,-11.0,99.37,14.0,32.0,1.25,ML,1717541270.0
457,esperanza,19.5847,-70.9849,80.29,84.0,100.0,5.01,DO,1717541271.0
458,kill devil hills,36.0307,-75.676,82.4,82.0,0.0,9.22,US,1717541272.0
459,labuan,5.2767,115.2417,79.16,100.0,20.0,0.0,MY,1717541273.0
460,washougal,45.5826,-122.3534,62.91,89.0,100.0,10.36,US,1717541275.0
461,calp,38.6447,0.0445,72.68,80.0,3.0,10.04,ES,1717541276.0
462,along,28.1667,94.7667,64.56,92.0,94.0,0.38,IN,1717541277.0
463,sisimiut,66.9395,-53.6735,37.99,87.0,98.0,3.0,GL,1717541278.0
464,tera,14.0078,0.7531,98.8,29.0,5.0,12.21,NE,1717541279.0
465,koz'modem'yansk,56.3367,46.5711,58.82,96.0,76.0,7.14,RU,1717541280.0
466,vilyuysk,63.7553,121.6247,60.01,46.0,63.0,11.99,RU,1717541281.0
467,talnakh,69.4865,88.3972,28.2,91.0,100.0,18.41,RU,1717541282.0
468,darya khan,31.7912,71.1039,93.02,20.0,10.0,13.78,PK,1717541283.0
469,port saint john's,-31.6229,29.5448,67.5,52.0,97.0,13.11,ZA,1717541285.0
470,novoshcherbinovskaya,46.4767,38.6476,68.32,65.0,63.0,5.64,RU,1717541286.0
471,nova venecia,-18.7106,-40.4006,69.67,93.0,59.0,6.49,BR,1717541287.0
472,isle of lewis,,,,,,,,
473,smithers,54.7804,-127.1743,57.52,38.0,75.0,12.66,CA,1717541289.0
474,santa maria,-29.6842,-53.8069,51.1,93.0,0.0,3.44,BR,1717541244.0
475,kushk,33.2957,61.9522,72.25,23.0,0.0,23.4,AF,1717541291.0
476,kone,-21.0595,164.8658,82.13,66.0,77.0,4.05,NC,1717541292.0
477,dragomiresti,44.9167,25.3333,58.01,71.0,0.0,4.85,RO,1717541294.0
478,chiroqchi,39.0336,66.5722,69.24,38.0,0.0,3.2,UZ,1717541295.0
479,mason city,43.1536,-93.201,81.09,63.0,75.0,12.66,US,1717541159.0
480,margate,51.3813,1.3862,58.3,84.0,88.0,7.0,GB,1717540796.0
481,marka,1.7159,44.7717,78.75,85.0,35.0,15.95,SO,1717541298.0
482,birjand,32.8663,59.2211,72.07,23.0,0.0,16.11,IR,1717541229.0
483,lieksa,63.3167,30.0167,53.44,95.0,5.0,6.53,FI,1717541300.0
484,hell-ville,-13.4,48.2667,77.49,77.0,11.0,3.36,MG,1717541301.0
485,jinka,5.65,36.65,64.11,85.0,66.0,3.67,ET,1717541302.0
486,yuzhno-kurilsk,44.0306,145.8556,44.38,97.0,100.0,4.5,RU,1717541304.0
487,qom,34.6401,50.8764,77.04,26.0,44.0,8.5,IR,1717541305.0
488,carbonear,47.7332,-53.2148,50.59,99.0,100.0,14.43,CA,1717541306.0
489,santo antonio,-6.3106,-35.4789,73.87,93.0,85.0,6.91,BR,1717541307.0
490,fasa,28.9383,53.6482,69.04,24.0,0.0,4.61,IR,1717541308.0
491,hirara,24.8,125.2833,75.47,73.0,100.0,9.22,JP,1717541309.0
492,yeppoon,-23.1333,150.7333,56.98,66.0,57.0,3.49,AU,1717541310.0
493,montecarlo,-26.5662,-54.757,65.68,87.0,41.0,1.72,AR,1717541233.0
494,thongwa,16.7619,96.5278,78.96,92.0,100.0,3.65,MM,1717541312.0
495,fort mcmurray,56.7268,-111.381,53.19,93.0,100.0,8.05,CA,1717541314.0
496,juneau,58.3019,-134.4197,53.6,76.0,75.0,10.36,US,1717541315.0
497,toga village,,,,,,,,
498,anjepy,,,,,,,,
499,fort bragg,35.139,-79.006,89.15,52.0,75.0,6.91,US,1717541318.0
500,mahalapye,-23.1041,26.8142,49.39,28.0,0.0,4.34,BW,1717541319.0
501,aur,8.1499,171.1687,83.16,80.0,73.0,16.64,MH,1717541320.0
502,villa maria grande,-31.6656,-59.9018,52.77,84.0,98.0,7.23,AR,1717541322.0
503,sidi bennour,32.6524,-8.4277,63.3,85.0,78.0,11.21,MA,1717541323.0
504,arica,-18.475,-70.3042,65.75,68.0,0.0,5.75,CL,1717541110.0
505,vanimo,-2.6741,141.3028,81.63,81.0,99.0,3.98,PG,1717541325.0
506,chinde,26.8418,88.0763,63.39,84.0,14.0,4.7,NP,1717541326.0
507,afif,23.9065,42.9172,87.39,10.0,2.0,7.29,SA,1717541327.0
508,miyaly,48.8844,53.7836,71.01,61.0,98.0,11.18,KZ,1717541328.0
509,lazaro cardenas,17.9583,-102.2,83.68,61.0,3.0,15.35,MX,1717541329.0
510,saldanha,-33.0117,17.9442,60.85,95.0,85.0,5.55,ZA,1717541330.0
511,kalkaman,51.9525,76.0211,52.7,77.0,94.0,6.85,KZ,1717541332.0
512,funafuti,-8.5243,179.1942,86.0,79.0,75.0,9.22,TV,1717541333.0
513,vorkuta,67.5,64.0,25.11,94.0,13.0,5.01,RU,1717541334.0
514,collinsville,38.6703,-89.9846,86.02,64.0,75.0,14.97,US,1717541195.0
515,poronaysk,49.2167,143.1167,45.59,80.0,100.0,5.55,RU,1717541337.0
516,illizi,26.4833,8.4667,98.4,16.0,89.0,3.18,DZ,1717541338.0
517,ivdel',60.6911,60.4206,60.19,99.0,95.0,5.01,RU,1717541339.0
518,bandarbeyla,9.4942,50.8122,79.45,83.0,7.0,26.91,SO,1717541340.0
519,bentiu,9.2333,29.8333,85.66,56.0,71.0,5.59,SS,1717541341.0
520,basoko,1.2391,23.616,72.05,96.0,72.0,1.79,CD,1717541343.0
521,luderitz,-26.6481,15.1594,55.15,74.0,0.0,4.9,NA,1717541344.0
522,la passe,45.5549,-0.8967,61.03,89.0,69.0,6.96,FR,1717541345.0
523,haiku-pauwela,20.9219,-156.3051,84.16,72.0,40.0,24.16,US,1717541346.0
524,george town,5.4112,100.3354,84.13,78.0,20.0,2.3,MY,1717541110.0
525,wenling,28.3669,121.36,64.89,87.0,100.0,6.91,CN,1717541348.0
526,karratha,-20.7377,116.8463,63.25,47.0,11.0,15.21,AU,1717541350.0
527,shagonar,51.5333,92.8,53.19,81.0,100.0,3.76,RU,1717541351.0
528,sao miguel do araguaia,-13.275,-50.1628,79.41,41.0,100.0,1.43,BR,1717541352.0
529,vyerkhnyadzvinsk,55.7815,27.9443,56.93,85.0,6.0,0.07,BY,1717541353.0
530,bulgan,48.8125,103.5347,48.38,87.0,99.0,4.45,MN,1717541354.0
531,sao tome,0.3365,6.7273,78.35,83.0,57.0,12.12,ST,1717541355.0
532,kuanda,56.3161,116.0806,66.58,47.0,17.0,3.44,RU,1717541356.0
533,cat ba,,,,,,,,
534,orsa,54.5153,30.4053,58.46,87.0,41.0,3.38,BY,1717541359.0
535,pointe aux piments,-20.0628,57.5131,72.16,78.0,21.0,17.72,MU,1717541360.0
536,port augusta,-32.5,137.7667,50.59,72.0,2.0,5.32,AU,1717541361.0
537,oum hadjer,13.2954,19.6966,90.81,12.0,1.0,2.04,TD,1717541362.0
538,barysaw,54.2312,28.5049,62.89,93.0,45.0,3.51,BY,1717541363.0
539,dharmanagar,24.3667,92.1667,74.25,99.0,71.0,2.48,IN,1717541364.0
540,general mosconi,-23.1851,-62.303,64.69,69.0,44.0,9.46,AR,1717541365.0
541,fisterra,42.9049,-9.2629,58.75,79.0,99.0,5.59,ES,1717541366.0
542,bulayevo,54.9056,70.4439,55.98,84.0,83.0,7.76,KZ,1717541367.0
543,haimen,23.1935,116.6142,67.89,94.0,100.0,8.59,CN,1717541369.0
544,barra de santo antonio,-9.4047,-35.5072,78.08,84.0,53.0,7.58,BR,1717541370.0
545,nieuw amsterdam,5.8833,-55.0833,84.22,79.0,40.0,2.3,SR,1717541371.0
546,kourou,5.1552,-52.6478,82.45,89.0,9.0,4.47,GF,1717541372.0
547,south boston,42.3334,-71.0495,76.86,71.0,75.0,11.5,US,1717541373.0
548,ulsteinvik,62.3432,5.8487,51.31,79.0,100.0,1.99,NO,1717541374.0
549,suratgarh,29.3167,73.9,91.26,27.0,1.0,13.18,IN,1717541375.0
550,coahuayana de hidalgo,18.7,-103.6583,85.91,51.0,2.0,7.31,MX,1717541376.0
551,san antonio de pale,-1.4014,5.6325,78.15,85.0,100.0,13.8,GQ,1717541377.0
552,minas de marcona,-15.2119,-75.1103,58.66,69.0,0.0,8.21,PE,1717541379.0
553,pokhara,28.2333,83.9833,70.56,48.0,14.0,6.35,NP,1717541380.0
554,kayangel,8.0823,134.7173,83.86,74.0,100.0,6.15,PW,1717541381.0
555,grootfontein,-19.5667,18.1167,49.57,29.0,0.0,4.61,NA,1717541382.0
556,ola,59.5833,151.2833,39.15,77.0,94.0,8.46,RU,1717541123.0
557,flekkefjord,58.2971,6.6607,54.95,99.0,100.0,6.17,NO,1717541384.0
558,talakan,50.3167,130.3667,59.88,52.0,100.0,8.41,RU,1717541385.0
559,campbell river,50.0163,-125.2446,62.13,44.0,75.0,4.61,CA,1717541270.0
560,chibougamau,49.9168,-74.3659,78.42,41.0,0.0,9.22,CA,1717541388.0
561,bianzhuang,34.8486,118.0447,68.81,67.0,100.0,11.18,CN,1717541389.0
562,kharp,66.8014,65.8081,31.71,88.0,10.0,4.76,RU,1717541390.0
563,debark',13.1561,37.8981,64.22,34.0,89.0,3.47,ET,1717541391.0
564,coracora,-15.0333,-73.7833,54.43,48.0,0.0,4.23,PE,1717541392.0
565,abraham's bay,,,,,,,,
